header:
  stamp:
    sec: 1776849488
    nanosec: 562590227
  frame_id: map
pose:
  pose:
    position:
      x: -0.1507724543037919
      y: -0.23072254256144112
      z: 0.0
    orientation:
      x: 0.0
      y: 0.0
      z: 0.010314225539944995
      w: 0.9999468069610059
  covariance:
  - 0.18849831357344943
  - 0.008238273980784555
  - 0.0
  - 0.0
  - 0.0
  - 0.0
  - 0.008238273980784541
  - 0.19014772609647657
  - 0.0
  - 0.0
  - 0.0
  - 0.0
  - 0.0
  - 0.0
  - 0.0
  - 0.0
  - 0.0
  - 0.0
  - 0.0
  - 0.0
  - 0.0
  - 0.0
  - 0.0
  - 0.0
  - 0.0
  - 0.0
  - 0.0
  - 0.0
  - 0.0
  - 0.0
  - 0.0
  - 0.0
  - 0.0
  - 0.0
  - 0.0
  - 0.06438269785982795
---
header:
  stamp:
    sec: 1776849643
    nanosec: 526921534
  frame_id: map
pose:
  pose:
    position:
      x: -1.0787596142327023
      y: 0.07095596776899823
      z: 0.0
    orientation:
      x: 0.0
      y: 0.0
      z: 0.6757020706193354
      w: 0.7371748176387625
  covariance:
  - 0.035547114557283876
  - 0.0017747013633662434
  - 0.0
  - 0.0
  - 0.0
  - 0.0
  - 0.0017747013633662434
  - 0.03058231952290906
  - 0.0
  - 0.0
  - 0.0
  - 0.0
  - 0.0
  - 0.0
  - 0.0
  - 0.0
  - 0.0
  - 0.0
  - 0.0
  - 0.0
  - 0.0
  - 0.0
  - 0.0
  - 0.0
  - 0.0
  - 0.0
  - 0.0
  - 0.0
  - 0.0
  - 0.0
  - 0.0
  - 0.0
  - 0.0
  - 0.0
  - 0.0
  - 0.07722254620063083
---
header:
  stamp:
    sec: 1776849681
    nanosec: 122762323
  frame_id: map
pose:
  pose:
    position:
      x: -1.5680253300909357
      y: 0.6118240461801674
      z: 0.0
    orientation:
      x: 0.0
      y: 0.0
      z: -0.5533078237449448
      w: 0.8329768617330454
  covariance:
  - 0.02633075139157004
  - 0.0014945421699839034
  - 0.0
  - 0.0
  - 0.0
  - 0.0
  - 0.0014945421699839034
  - 0.020646079385330862
  - 0.0
  - 0.0
  - 0.0
  - 0.0
  - 0.0
  - 0.0
  - 0.0
  - 0.0
  - 0.0
  - 0.0
  - 0.0
  - 0.0
  - 0.0
  - 0.0
  - 0.0
  - 0.0
  - 0.0
  - 0.0
  - 0.0
  - 0.0
  - 0.0
  - 0.0
  - 0.0
  - 0.0
  - 0.0
  - 0.0
  - 0.0
  - 0.07429906235869374
---
header:
  stamp:
    sec: 1776849716
    nanosec: 312198200
  frame_id: map
pose:
  pose:
    position:
      x: -2.191311838738374
      y: -0.0723548724483136
      z: 0.0
    orientation:
      x: 0.0
      y: 0.0
      z: 0.7969551542150811
      w: 0.6040384773919757
  covariance:
  - 0.022732848469499523
  - -0.0025441075940646207
  - 0.0
  - 0.0
  - 0.0
  - 0.0
  - -0.0025441075940646207
  - 0.02487004114066311
  - 0.0
  - 0.0
  - 0.0
  - 0.0
  - 0.0
  - 0.0
  - 0.0
  - 0.0
  - 0.0
  - 0.0
  - 0.0
  - 0.0
  - 0.0
  - 0.0
  - 0.0
  - 0.0
  - 0.0
  - 0.0
  - 0.0
  - 0.0
  - 0.0
  - 0.0
  - 0.0
  - 0.0
  - 0.0
  - 0.0
  - 0.0
  - 0.07636965041170295
---
header:
  stamp:
    sec: 1776849743
    nanosec: 221682960
  frame_id: map
pose:
  pose:
    position:
      x: -3.1314396350047202
      y: 0.4414679464953455
      z: 0.0
    orientation:
      x: 0.0
      y: 0.0
      z: -0.6794658614896312
      w: 0.7337071234969396
  covariance:
  - 0.03729196091087772
  - 0.005727366578067716
  - 0.0
  - 0.0
  - 0.0
  - 0.0
  - 0.005727366578067716
  - 0.026000450548840787
  - 0.0
  - 0.0
  - 0.0
  - 0.0
  - 0.0
  - 0.0
  - 0.0
  - 0.0
  - 0.0
  - 0.0
  - 0.0
  - 0.0
  - 0.0
  - 0.0
  - 0.0
  - 0.0
  - 0.0
  - 0.0
  - 0.0
  - 0.0
  - 0.0
  - 0.0
  - 0.0
  - 0.0
  - 0.0
  - 0.0
  - 0.0
  - 0.08306362775155231
---
header:
  stamp:
    sec: 1776849785
    nanosec: 17881701
  frame_id: map
pose:
  pose:
    position:
      x: -3.2835393036433405
      y: -0.10195187443663478
      z: 0.0
    orientation:
      x: 0.0
      y: 0.0
      z: 0.5270695181045316
      w: 0.8498221714482723
  covariance:
  - 0.030414784831659603
  - 0.011772388404801604
  - 0.0
  - 0.0
  - 0.0
  - 0.0
  - 0.011772388404801604
  - 0.033350509792289845
  - 0.0
  - 0.0
  - 0.0
  - 0.0
  - 0.0
  - 0.0
  - 0.0
  - 0.0
  - 0.0
  - 0.0
  - 0.0
  - 0.0
  - 0.0
  - 0.0
  - 0.0
  - 0.0
  - 0.0
  - 0.0
  - 0.0
  - 0.0
  - 0.0
  - 0.0
  - 0.0
  - 0.0
  - 0.0
  - 0.0
  - 0.0
  - 0.10391339690581
---
header:
  stamp:
    sec: 1776849833
    nanosec: 78585855
  frame_id: map
pose:
  pose:
    position:
      x: -3.716156298638488
      y: -0.20608935460419006
      z: 0.0
    orientation:
      x: 0.0
      y: 0.0
      z: -0.9949289061152515
      w: 0.10058067297601933
  covariance:
  - 0.07552792881516446
  - 0.006061927720119598
  - 0.0
  - 0.0
  - 0.0
  - 0.0
  - 0.0060619277201193755
  - 0.017052962218773192
  - 0.0
  - 0.0
  - 0.0
  - 0.0
  - 0.0
  - 0.0
  - 0.0
  - 0.0
  - 0.0
  - 0.0
  - 0.0
  - 0.0
  - 0.0
  - 0.0
  - 0.0
  - 0.0
  - 0.0
  - 0.0
  - 0.0
  - 0.0
  - 0.0
  - 0.0
  - 0.0
  - 0.0
  - 0.0
  - 0.0
  - 0.0
  - 0.09160462912415238
---


NEW POINTS:
header:
  stamp:
    sec: 1777475534
    nanosec: 913014604
  frame_id: map
pose:
  pose:
    position:
      x: -1.1960090785979713
      y: 0.696284769562094
      z: 0.0
    orientation:
      x: 0.0
      y: 0.0
      z: -0.7025040445836127
      w: 0.7116797505505307
  covariance:
  - 0.22793550916432204
  - -0.006807549239179145
  - 0.0
  - 0.0
  - 0.0
  - 0.0
  - -0.006807549239179145
  - 0.178537963166571
  - 0.0
  - 0.0
  - 0.0
  - 0.0
  - 0.0
  - 0.0
  - 0.0
  - 0.0
  - 0.0
  - 0.0
  - 0.0
  - 0.0
  - 0.0
  - 0.0
  - 0.0
  - 0.0
  - 0.0
  - 0.0
  - 0.0
  - 0.0
  - 0.0
  - 0.0
  - 0.0
  - 0.0
  - 0.0
  - 0.0
  - 0.0
  - 0.06832505006321338
---
header:
  stamp:
    sec: 1777475615
    nanosec: 434382281
  frame_id: map
pose:
  pose:
    position:
      x: -1.0122222393943552
      y: 0.1651003392900611
      z: 0.0
    orientation:
      x: 0.0
      y: 0.0
      z: 0.7191735700381287
      w: 0.694830465767451
  covariance:
  - 0.03278637928615469
  - 0.007588088684261501
  - 0.0
  - 0.0
  - 0.0
  - 0.0
  - 0.007588088684261557
  - 0.05372740159887501
  - 0.0
  - 0.0
  - 0.0
  - 0.0
  - 0.0
  - 0.0
  - 0.0
  - 0.0
  - 0.0
  - 0.0
  - 0.0
  - 0.0
  - 0.0
  - 0.0
  - 0.0
  - 0.0
  - 0.0
  - 0.0
  - 0.0
  - 0.0
  - 0.0
  - 0.0
  - 0.0
  - 0.0
  - 0.0
  - 0.0
  - 0.0
  - 0.1313219983593311
---

header:
  stamp:
    sec: 1777475698
    nanosec: 806137115
  frame_id: map
pose:
  pose:
    position:
      x: -2.9966289479131216
      y: 0.16628469419453254
      z: 0.0
    orientation:
      x: 0.0
      y: 0.0
      z: -0.703319738788994
      w: 0.7108736491316732
  covariance:
  - 0.02352042321829728
  - -0.00901823109341332
  - 0.0
  - 0.0
  - 0.0
  - 0.0
  - -0.00901823109341332
  - 0.02818663308498855
  - 0.0
  - 0.0
  - 0.0
  - 0.0
  - 0.0
  - 0.0
  - 0.0
  - 0.0
  - 0.0
  - 0.0
  - 0.0
  - 0.0
  - 0.0
  - 0.0
  - 0.0
  - 0.0
  - 0.0
  - 0.0
  - 0.0
  - 0.0
  - 0.0
  - 0.0
  - 0.0
  - 0.0
  - 0.0
  - 0.0
  - 0.0
  - 0.05235092757134517
---
header:
  stamp:
    sec: 1777475787
    nanosec: 754241971
  frame_id: map
pose:
  pose:
    position:
      x: -3.1448283952319676
      y: 0.07683171714505631
      z: 0.0
    orientation:
      x: 0.0
      y: 0.0
      z: 0.5786822913923401
      w: 0.8155530673284914
  covariance:
  - 0.03242481483233739
  - 0.012341953860105281
  - 0.0
  - 0.0
  - 0.0
  - 0.0
  - 0.012341953860105337
  - 0.021310517591531433
  - 0.0
  - 0.0
  - 0.0
  - 0.0
  - 0.0
  - 0.0
  - 0.0
  - 0.0
  - 0.0
  - 0.0
  - 0.0
  - 0.0
  - 0.0
  - 0.0
  - 0.0
  - 0.0
  - 0.0
  - 0.0
  - 0.0
  - 0.0
  - 0.0
  - 0.0
  - 0.0
  - 0.0
  - 0.0
  - 0.0
  - 0.0
  - 0.09559497159264972
---

header:
  stamp:
    sec: 1777475822
    nanosec: 917094687
  frame_id: map
pose:
  pose:
    position:
      x: -3.9604760981429408
      y: -0.22789600383404476
      z: 0.0
    orientation:
      x: 0.0
      y: 0.0
      z: -0.9983043058310701
      w: 0.05821093504785283
  covariance:
  - 0.07197613533032055
  - -0.0046980430629538494
  - 0.0
  - 0.0
  - 0.0
  - 0.0
  - -0.0046980430629538494
  - 0.037650203599857095
  - 0.0
  - 0.0
  - 0.0
  - 0.0
  - 0.0
  - 0.0
  - 0.0
  - 0.0
  - 0.0
  - 0.0
  - 0.0
  - 0.0
  - 0.0
  - 0.0
  - 0.0
  - 0.0
  - 0.0
  - 0.0
  - 0.0
  - 0.0
  - 0.0
  - 0.0
  - 0.0
  - 0.0
  - 0.0
  - 0.0
  - 0.0
  - 0.09430568795307025
---
